[
  { "id": "sub-001", "name": "경복궁역", "lat": 37.5759, "lng": 126.9738, "category": "subway", "line": "3호선", "lineColor": "#EF7C1C" },
  { "id": "sub-002", "name": "안국역", "lat": 37.5763, "lng": 126.9855, "category": "subway", "line": "3호선", "lineColor": "#EF7C1C" },
  { "id": "sub-003", "name": "광화문역", "lat": 37.5713, "lng": 126.9767, "category": "subway", "line": "5호선", "lineColor": "#996CAC" },
  { "id": "sub-004", "name": "종로3가역", "lat": 37.5715, "lng": 126.9920, "category": "subway", "line": "1호선", "lineColor": "#263C96" },
  { "id": "sub-005", "name": "종각역", "lat": 37.5700, "lng": 126.9828, "category": "subway", "line": "1호선", "lineColor": "#263C96" },
  { "id": "sub-006", "name": "시청역", "lat": 37.5657, "lng": 126.9770, "category": "subway", "line": "1호선", "lineColor": "#263C96" },
  { "id": "sub-007", "name": "을지로입구역", "lat": 37.5660, "lng": 126.9822, "category": "subway", "line": "2호선", "lineColor": "#33A23D" },
  { "id": "sub-008", "name": "을지로3가역", "lat": 37.5665, "lng": 126.9920, "category": "subway", "line": "2호선", "lineColor": "#33A23D" },
  { "id": "sub-009", "name": "독립문역", "lat": 37.5722, "lng": 126.9601, "category": "subway", "line": "3호선", "lineColor": "#EF7C1C" },
  { "id": "sub-010", "name": "충정로역", "lat": 37.5600, "lng": 126.9637, "category": "subway", "line": "2호선", "lineColor": "#33A23D" },
  { "id": "sub-011", "name": "서대문역", "lat": 37.5658, "lng": 126.9665, "category": "subway", "line": "5호선", "lineColor": "#996CAC" },
  { "id": "sub-012", "name": "혜화역", "lat": 37.5824, "lng": 127.0019, "category": "subway", "line": "4호선", "lineColor": "#00A4E3" },
  { "id": "sub-013", "name": "한성대입구역", "lat": 37.5884, "lng": 127.0063, "category": "subway", "line": "4호선", "lineColor": "#00A4E3" },
  { "id": "sub-014", "name": "성균관대역", "lat": 37.5891, "lng": 126.9935, "category": "subway", "line": "4호선", "lineColor": "#00A4E3" },
  { "id": "sub-015", "name": "동대문역", "lat": 37.5712, "lng": 127.0095, "category": "subway", "line": "1호선", "lineColor": "#263C96" },
  { "id": "sub-016", "name": "동대문역사문화공원역", "lat": 37.5650, "lng": 127.0090, "category": "subway", "line": "2호선", "lineColor": "#33A23D" },
  { "id": "sub-017", "name": "종로5가역", "lat": 37.5710, "lng": 127.0020, "category": "subway", "line": "1호선", "lineColor": "#263C96" },
  { "id": "sub-018", "name": "경찰병원역", "lat": 37.5943, "lng": 126.9690, "category": "subway", "line": "3호선", "lineColor": "#EF7C1C" },
  { "id": "sub-019", "name": "녹번역", "lat": 37.6015, "lng": 126.9535, "category": "subway", "line": "3호선", "lineColor": "#EF7C1C" },
  { "id": "sub-020", "name": "홍제역", "lat": 37.5886, "lng": 126.9436, "category": "subway", "line": "3호선", "lineColor": "#EF7C1C" },
  { "id": "sub-021", "name": "무악재역", "lat": 37.5828, "lng": 126.9500, "category": "subway", "line": "3호선", "lineColor": "#EF7C1C" },
  { "id": "sub-022", "name": "아현역", "lat": 37.5575, "lng": 126.9560, "category": "subway", "line": "2호선", "lineColor": "#33A23D" },
  { "id": "sub-023", "name": "이대역", "lat": 37.5569, "lng": 126.9460, "category": "subway", "line": "2호선", "lineColor": "#33A23D" },
  { "id": "sub-024", "name": "신촌역", "lat": 37.5552, "lng": 126.9368, "category": "subway", "line": "2호선", "lineColor": "#33A23D" },
  { "id": "sub-025", "name": "약수역", "lat": 37.5545, "lng": 127.0100, "category": "subway", "line": "6호선", "lineColor": "#CD7C2F" },
  { "id": "sub-026", "name": "버티고개역", "lat": 37.5478, "lng": 127.0073, "category": "subway", "line": "6호선", "lineColor": "#CD7C2F" },
  { "id": "sub-027", "name": "창신역", "lat": 37.5790, "lng": 127.0130, "category": "subway", "line": "6호선", "lineColor": "#CD7C2F" },
  { "id": "sub-028", "name": "보문역", "lat": 37.5850, "lng": 127.0190, "category": "subway", "line": "6호선", "lineColor": "#CD7C2F" }
]
