[
  { "id": "sch-001", "name": "역삼초", "lat": 37.4997, "lng": 127.0390, "category": "school", "level": "elementary" },
  { "id": "sch-002", "name": "도곡초", "lat": 37.4890, "lng": 127.0480, "category": "school", "level": "elementary" },
  { "id": "sch-003", "name": "대치초", "lat": 37.4945, "lng": 127.0610, "category": "school", "level": "elementary" },
  { "id": "sch-004", "name": "포이초", "lat": 37.4870, "lng": 127.0440, "category": "school", "level": "elementary" },
  { "id": "sch-005", "name": "언주초", "lat": 37.5065, "lng": 127.0370, "category": "school", "level": "elementary" },
  { "id": "sch-006", "name": "청담초", "lat": 37.5220, "lng": 127.0510, "category": "school", "level": "elementary" },
  { "id": "sch-007", "name": "삼성초", "lat": 37.5120, "lng": 127.0600, "category": "school", "level": "elementary" },
  { "id": "sch-008", "name": "개포초", "lat": 37.4830, "lng": 127.0520, "category": "school", "level": "elementary" },
  { "id": "sch-009", "name": "압구정초", "lat": 37.5250, "lng": 127.0340, "category": "school", "level": "elementary" },
  { "id": "sch-010", "name": "논현초", "lat": 37.5100, "lng": 127.0270, "category": "school", "level": "elementary" },
  { "id": "sch-011", "name": "역삼중", "lat": 37.5010, "lng": 127.0420, "category": "school", "level": "middle" },
  { "id": "sch-012", "name": "대청중", "lat": 37.4920, "lng": 127.0580, "category": "school", "level": "middle" },
  { "id": "sch-013", "name": "단국대사부중", "lat": 37.4980, "lng": 127.0550, "category": "school", "level": "middle" },
  { "id": "sch-014", "name": "압구정중", "lat": 37.5240, "lng": 127.0370, "category": "school", "level": "middle" },
  { "id": "sch-015", "name": "청담중", "lat": 37.5190, "lng": 127.0490, "category": "school", "level": "middle" },
  { "id": "sch-016", "name": "언주중", "lat": 37.5050, "lng": 127.0350, "category": "school", "level": "middle" },
  { "id": "sch-017", "name": "숙명여고", "lat": 37.4940, "lng": 127.0490, "category": "school", "level": "high" },
  { "id": "sch-018", "name": "경기고", "lat": 37.4960, "lng": 127.0430, "category": "school", "level": "high" },
  { "id": "sch-019", "name": "중동고", "lat": 37.4900, "lng": 127.0570, "category": "school", "level": "high" },
  { "id": "sch-020", "name": "단대사부고", "lat": 37.4985, "lng": 127.0545, "category": "school", "level": "high" },
  { "id": "sch-021", "name": "진선여고", "lat": 37.5030, "lng": 127.0280, "category": "school", "level": "high" },
  { "id": "sch-022", "name": "청담고", "lat": 37.5210, "lng": 127.0470, "category": "school", "level": "high" },
  { "id": "sch-023", "name": "압구정고", "lat": 37.5235, "lng": 127.0390, "category": "school", "level": "high" },
  { "id": "sch-024", "name": "세화고", "lat": 37.4850, "lng": 127.0600, "category": "school", "level": "high" }
]
